[
  {
    "name": "Aditi Sharma",
    "pincode": "411041",
    "country": "India",
    "lat": 18.4411029,
    "lng": 73.8156886,
    "display_name": "411041, Haveli, Pune, Maharashtra, India"
  },
  {
    "name": "Ravi Kulkarni",
    "pincode": "411057",
    "country": "India",
    "lat": 18.5908276,
    "lng": 73.7397835,
    "display_name": "411057, Mulshi, Pune, Maharashtra, India"
  },
  {
    "name": "Neha Patil",
    "pincode": "411038",
    "country": "India",
    "lat": 18.5074404,
    "lng": 73.8070609,
    "display_name": "411038, Pune City, Pune, Maharashtra, India"
  },
  {
    "name": "Shubham Jadhav",
    "pincode": "411033",
    "country": "India",
    "lat": 18.6230545,
    "lng": 73.7715726,
    "display_name": "411033, Mulshi, Pune, Maharashtra, India"
  },
  {
    "name": "Kiran Bhosale",
    "pincode": "411052",
    "country": "India",
    "lat": 18.4970435,
    "lng": 73.8168039,
    "display_name": "411052, Pune City, Pune, Maharashtra, India"
  },
  {
    "name": "Rutuja More",
    "pincode": "411028",
    "country": "India",
    "lat": 18.5038423,
    "lng": 73.9352015,
    "display_name": "411028, Pune City, Pune, Maharashtra, India"
  },
  {
    "name": "Aman Joshi",
    "pincode": "411021",
    "country": "India",
    "lat": 18.5304535,
    "lng": 73.7760755,
    "display_name": "411021, Pune City, Pune, Maharashtra, India"
  },
  {
    "name": "Sneha Deshmukh",
    "pincode": "411004",
    "country": "India",
    "lat": 18.5163319,
    "lng": 73.8359809,
    "display_name": "411004, Pune City, Pune, Maharashtra, India"
  },
  {
    "name": "Pratiksha Pawar",
    "pincode": "411014",
    "country": "India",
    "lat": 18.5587884,
    "lng": 73.9220842,
    "display_name": "411014, Ward 12, Pune City, Pune, Maharashtra, India"
  },
  {
    "name": "Sanket Shinde",
    "pincode": "411001",
    "country": "India",
    "lat": 18.532536,
    "lng": 73.8774896,
    "display_name": "411001, Pune City, Pune, Maharashtra, India"
  },
  {
    "name": "Mitali Gokhale",
    "pincode": "411005",
    "country": "India",
    "lat": 18.4849893,
    "lng": 73.8965787,
    "display_name": "411005, Pune City, Pune, Maharashtra, India"
  },
  {
    "name": "Ankit More",
    "pincode": "411017",
    "country": "India",
    "lat": 18.6100622,
    "lng": 73.7917239,
    "display_name": "411017, Haveli, Pune, Maharashtra, India"
  },
  {
    "name": "Nisha Patil",
    "pincode": "411030",
    "country": "India",
    "lat": 18.5091062,
    "lng": 73.8481779,
    "display_name": "411030, Pune City, Pune, Maharashtra, India"
  },
  {
    "name": "Tejas Joshi",
    "pincode": "411045",
    "country": "India",
    "lat": 18.5649561,
    "lng": 73.7807561,
    "display_name": "411045, Pune City, Pune, Maharashtra, India"
  },
  {
    "name": "Vaibhav Kulkarni",
    "pincode": "411046",
    "country": "India",
    "lat": 18.453035,
    "lng": 73.8495247,
    "display_name": "411046, Pune City, Pune, Maharashtra, India"
  },
  {
    "name": "Prachi Deshmukh",
    "pincode": "411048",
    "country": "India",
    "lat": 18.4692821,
    "lng": 73.891247,
    "display_name": "411048, Pune City, Pune, Maharashtra, India"
  },
  {
    "name": "Rohit Shinde",
    "pincode": "411002",
    "country": "India",
    "lat": 18.5117306,
    "lng": 73.8595026,
    "display_name": "411002, Pune City, Pune, Maharashtra, India"
  },
  {
    "name": "Komal Pawar",
    "pincode": "411043",
    "country": "India",
    "lat": 18.4636124,
    "lng": 73.8536994,
    "display_name": "411043, Pune City, Pune, Maharashtra, India"
  },
  {
    "name": "Manoj Gaikwad",
    "pincode": "411022",
    "country": "India",
    "lat": 18.5056241,
    "lng": 73.9065811,
    "display_name": "411022, Pune City, Pune, Maharashtra, India"
  },
  {
    "name": "Sayali Patil",
    "pincode": "411019",
    "country": "India",
    "lat": 18.6413608,
    "lng": 73.8009977,
    "display_name": "411019, Haveli, Pune, Maharashtra, India"
  },
  {
    "name": "Rahul Nair",
    "pincode": "400050",
    "country": "India",
    "lat": 19.0574917,
    "lng": 72.8297279,
    "display_name": "400050, Bandra West, Mumbai, Mumbai Suburban, Maharashtra, India"
  },
  {
    "name": "Neha Patil",
    "pincode": "400069",
    "country": "India",
    "lat": 19.1215086,
    "lng": 72.8532719,
    "display_name": "400069, Zone 3, Mumbai, Mumbai Suburban, Maharashtra, India"
  },
  {
    "name": "Aarav Mehta",
    "pincode": "400064",
    "country": "India",
    "lat": 19.1888529,
    "lng": 72.8402336,
    "display_name": "400064, P/N Ward, Zone 4, Mumbai, Mumbai Suburban, Maharashtra, India"
  },
  {
    "name": "Divya Shetty",
    "pincode": "400092",
    "country": "India",
    "lat": 19.2428418,
    "lng": 72.847467,
    "display_name": "400092, R/N Ward, Zone 4, Mumbai, Mumbai Suburban, Maharashtra, India"
  },
  {
    "name": "Siddharth Jain",
    "pincode": "400101",
    "country": "India",
    "lat": 19.2050261,
    "lng": 72.870113,
    "display_name": "400101, R/S Ward, Zone 4, Mumbai, Mumbai Suburban, Maharashtra, India"
  },
  {
    "name": "Anjali Verma",
    "pincode": "400067",
    "country": "India",
    "lat": 19.2072946,
    "lng": 72.8385708,
    "display_name": "400067, R/S Ward, Zone 4, Mumbai, Mumbai Suburban, Maharashtra, India"
  },
  {
    "name": "Pranav Desai",
    "pincode": "400053",
    "country": "India",
    "lat": 19.1379799,
    "lng": 72.8297907,
    "display_name": "400053, K/W Ward, Zone 3, Mumbai, Mumbai Suburban, Maharashtra, India"
  },
  {
    "name": "Megha Shah",
    "pincode": "400076",
    "country": "India",
    "lat": 19.122641,
    "lng": 72.9126071,
    "display_name": "400076, Zone 6, Mumbai, Mumbai Suburban, Maharashtra, India"
  },
  {
    "name": "Varun Malhotra",
    "pincode": "400093",
    "country": "India",
    "lat": 19.1261381,
    "lng": 72.8659168,
    "display_name": "400093, K/E Ward, Zone 3, Mumbai, Mumbai Suburban, Maharashtra, India"
  },
  {
    "name": "Simran Kaur",
    "pincode": "400059",
    "country": "India",
    "lat": 19.1156551,
    "lng": 72.9256908,
    "display_name": "400059, Zone 6, Mumbai, Mumbai Suburban, Maharashtra, India"
  },
  {
    "name": "Karthik Reddy",
    "pincode": "560066",
    "country": "India",
    "lat": 12.9668493,
    "lng": 77.7516428,
    "display_name": "560066, Whitefield, Bengaluru East City Corporation, Bengaluru, Bangalore East, Bengaluru Urban, Karnataka, India"
  },
  {
    "name": "Anusha Rao",
    "pincode": "560034",
    "country": "India",
    "lat": 12.9255706,
    "lng": 77.6343793,
    "display_name": "560034, Koramangala, Bengaluru South City Corporation, Bengaluru, Bangalore South, Bengaluru Urban, Karnataka, India"
  },
  {
    "name": "Vivek Shetty",
    "pincode": "560048",
    "country": "India",
    "lat": 12.9890485,
    "lng": 77.7067315,
    "display_name": "560048, Hoodi, Bangalore East, Bengaluru Urban, Karnataka, India"
  },
  {
    "name": "Priya Menon",
    "pincode": "560037",
    "country": "India",
    "lat": 12.9623272,
    "lng": 77.6972859,
    "display_name": "560037, Marathahalli, Bengaluru East City Corporation, Bengaluru, Bangalore East, Bengaluru Urban, Karnataka, India"
  },
  {
    "name": "Aditya Rao",
    "pincode": "560100",
    "country": "India",
    "lat": 12.8502428,
    "lng": 77.6545244,
    "display_name": "560100, Electronic City, Bangalore South, Bengaluru Urban, Karnataka, India"
  },
  {
    "name": "Snehal Kumar",
    "pincode": "560029",
    "country": "India",
    "lat": 12.9308405,
    "lng": 77.6074782,
    "display_name": "560029, Bengaluru South City Corporation, Bengaluru, Bangalore South, Bengaluru Urban, Karnataka, India"
  },
  {
    "name": "Sanjay Iyer",
    "pincode": "560025",
    "country": "India",
    "lat": 12.963021,
    "lng": 77.6035715,
    "display_name": "560025, Richmond Town, Bengaluru Central City Corporation, Bengaluru, Bangalore North, Bengaluru Urban, Karnataka, India"
  },
  {
    "name": "Meera Nair",
    "pincode": "560102",
    "country": "India",
    "lat": 12.9143784,
    "lng": 77.6432565,
    "display_name": "560102, HSR Layout, Bengaluru South City Corporation, Bengaluru, Bangalore South, Bengaluru Urban, Karnataka, India"
  },
  {
    "name": "Aakash Gupta",
    "pincode": "560038",
    "country": "India",
    "lat": 12.98083,
    "lng": 77.6392889,
    "display_name": "560038, Indiranagar, Bengaluru Central City Corporation, Bengaluru, Bangalore North, Bengaluru Urban, Karnataka, India"
  },
  {
    "name": "Nandita Roy",
    "pincode": "560001",
    "country": "India",
    "lat": 12.9807371,
    "lng": 77.5940135,
    "display_name": "560001, Vasanth Nagar, Bengaluru Central City Corporation, Bengaluru, Bangalore North, Bengaluru Urban, Karnataka, India"
  },
  {
    "name": "Arjun Singh",
    "pincode": "110001",
    "country": "India",
    "lat": 28.628737,
    "lng": 77.2183781,
    "display_name": "110001, Chanakya Puri Tehsil, New Delhi, Delhi, India"
  },
  {
    "name": "Ishita Gupta",
    "pincode": "110011",
    "country": "India",
    "lat": 28.6037734,
    "lng": 77.2102999,
    "display_name": "110011, Chanakya Puri Tehsil, New Delhi, Delhi, India"
  },
  {
    "name": "Kabir Sharma",
    "pincode": "110029",
    "country": "India",
    "lat": 28.5684538,
    "lng": 77.2003921,
    "display_name": "110029, Vasant Vihar Tehsil, New Delhi, Delhi, India"
  },
  {
    "name": "Daniel Mathew",
    "pincode": "600028",
    "country": "India",
    "lat": 13.0254663,
    "lng": 80.2619427,
    "display_name": "600028, Zone 9 Teynampet, Chennai, Tamil Nadu, India"
  },
  {
    "name": "Lavanya Raj",
    "pincode": "600020",
    "country": "India",
    "lat": 13.000321,
    "lng": 80.2524455,
    "display_name": "600020, Zone 13 Adyar, Chennai, Tamil Nadu, India"
  },
  {
    "name": "Arvind Krishnan",
    "pincode": "600018",
    "country": "India",
    "lat": 13.0371057,
    "lng": 80.2552123,
    "display_name": "600018, Zone 9 Teynampet, Chennai, Tamil Nadu, India"
  },
  {
    "name": "Emily Brown",
    "pincode": "10001",
    "country": "USA",
    "lat": 40.7484322,
    "lng": -73.9940224,
    "display_name": "10001, Manhattan, New York County, City of New York, New York, United States"
  },
  {
    "name": "Liam Wilson",
    "pincode": "WC2N",
    "country": "UK",
    "lat": 51.5071595,
    "lng": -0.1254806,
    "display_name": "Royal Mail, Northumberland Street, Covent Garden, Waterloo, City of Westminster, Greater London, England, WC2N 5DB, United Kingdom"
  },
  {
    "name": "Sophie Martin",
    "pincode": "75001",
    "country": "France",
    "lat": 48.8618779,
    "lng": 2.3374139,
    "display_name": "75001, Paris, France métropolitaine, France"
  },
  {
    "name": "Kenji Tanaka",
    "pincode": "100-0001",
    "country": "Japan",
    "lat": 35.6848662,
    "lng": 139.7526407,
    "display_name": "100-0001, 千代田, 千代田区, 東京都, 日本"
  },
  {
    "name": "Olivia Taylor",
    "pincode": "90210",
    "country": "USA",
    "lat": 34.0942489,
    "lng": -118.4114324,
    "display_name": "90210, Los Angeles, Los Angeles County, California, United States"
  },
  {
    "name": "Noah Smith",
    "pincode": "SW1A",
    "country": "UK",
    "lat": 51.5056966,
    "lng": -0.1397148,
    "display_name": "Royal Mail, St. James's Place, St. James's, Mayfair, London, Greater London, England, SW1A 1NS, United Kingdom"
  },
  {
    "name": "Isabella Rossi",
    "pincode": "20121",
    "country": "Italy",
    "lat": 45.4717666,
    "lng": 9.1886528,
    "display_name": "20121, Municipio 1, Milano, Lombardia, Italia"
  },
  {
    "name": "Hiroshi Yamamoto",
    "pincode": "150-0001",
    "country": "Japan",
    "lat": 35.6680508,
    "lng": 139.7065085,
    "display_name": "150-0001, 神宮前四丁目, 神宮前, 渋谷区, 東京都, 日本"
  },
  {
    "name": "Maya Singh",
    "pincode": "110002",
    "country": "India",
    "lat": 28.6388449,
    "lng": 77.2389115,
    "display_name": "110002, Kotwali Tehsil, Central Delhi, Delhi, India"
  },
  {
    "name": "Arnav Kapoor",
    "pincode": "110003",
    "country": "India",
    "lat": 28.6007586,
    "lng": 77.2240382,
    "display_name": "110003, Chanakya Puri Tehsil, New Delhi, Delhi, India"
  },
  {
    "name": "Tanya Sharma",
    "pincode": "110004",
    "country": "India",
    "lat": 28.6154726,
    "lng": 77.2028976,
    "display_name": "110004, Chanakya Puri Tehsil, New Delhi, Delhi, India"
  },
  {
    "name": "Rohan Mehra",
    "pincode": "110005",
    "country": "India",
    "lat": 28.7873665,
    "lng": 77.1971813,
    "display_name": "110005, Alipur Tehsil, North Delhi, Delhi, India"
  },
  {
    "name": "Priya Singh",
    "pincode": "110006",
    "country": "India",
    "lat": 28.6559844,
    "lng": 77.2316234,
    "display_name": "110006, Kotwali Tehsil, Central Delhi, Delhi, India"
  },
  {
    "name": "Aarav Sharma",
    "pincode": "110007",
    "country": "India",
    "lat": 28.6835175,
    "lng": 77.2051385,
    "display_name": "110007, Civil Lines Tehsil, Central Delhi, Delhi, India"
  },
  {
    "name": "Ananya Jain",
    "pincode": "110008",
    "country": "India",
    "lat": 28.6430938,
    "lng": 77.1600533,
    "display_name": "110008, West Delhi, Delhi, India"
  },
  {
    "name": "Vivaan Verma",
    "pincode": "110009",
    "country": "India",
    "lat": 28.7030307,
    "lng": 77.2052713,
    "display_name": "110009, Model Town Tehsil, North Delhi, Delhi, India"
  },
  {
    "name": "Kiara Rao",
    "pincode": "110010",
    "country": "India",
    "lat": 28.5788994,
    "lng": 77.1186142,
    "display_name": "110010, Delhi Cantonment, New Delhi, Delhi, India"
  },
  {
    "name": "Rhea Deshmukh",
    "pincode": "110012",
    "country": "India",
    "lat": 28.6375163,
    "lng": 77.161133,
    "display_name": "110012, West Delhi, Delhi, India"
  },
  {
    "name": "Aditya Sharma",
    "pincode": "110013",
    "country": "India",
    "lat": 28.5887108,
    "lng": 77.253169,
    "display_name": "110013, Defence Colony Tehsil, South East Delhi, Delhi, India"
  },
  {
    "name": "Saanvi Patil",
    "pincode": "110014",
    "country": "India",
    "lat": 28.5800691,
    "lng": 77.2527603,
    "display_name": "110014, Defence Colony Tehsil, South East Delhi, Delhi, India"
  },
  {
    "name": "Ishaan Gupta",
    "pincode": "110015",
    "country": "India",
    "lat": 28.6558467,
    "lng": 77.1469537,
    "display_name": "110015, West Delhi, Delhi, India"
  },
  {
    "name": "Meera Joshi",
    "pincode": "110016",
    "country": "India",
    "lat": 28.5493158,
    "lng": 77.1991476,
    "display_name": "110016, Hauz Khas Tehsil, South Delhi, Delhi, India"
  },
  {
    "name": "Aryan Malhotra",
    "pincode": "110017",
    "country": "India",
    "lat": 28.5414714,
    "lng": 77.2128819,
    "display_name": "110017, Hauz Khas Tehsil, South Delhi, Delhi, India"
  },
  {
    "name": "Anika Verma",
    "pincode": "110018",
    "country": "India",
    "lat": 28.6375991,
    "lng": 77.0830226,
    "display_name": "110018, West Delhi, Delhi, India"
  },
  {
    "name": "Vivaan Sharma",
    "pincode": "110019",
    "country": "India",
    "lat": 28.5447481,
    "lng": 77.2534444,
    "display_name": "110019, Kalkaji Tehsil, South East Delhi, Delhi, India"
  },
  {
    "name": "Riya Kapoor",
    "pincode": "110020",
    "country": "India",
    "lat": 28.4488339,
    "lng": 77.4426914,
    "display_name": "110020, Noida, Dadri, Gautam Buddha Nagar, Uttar Pradesh, India"
  },
  {
    "name": "Kabir Singh",
    "pincode": "110021",
    "country": "India",
    "lat": 28.593008,
    "lng": 77.1810396,
    "display_name": "110021, Chanakya Puri Tehsil, New Delhi, Delhi, India"
  },
  {
    "name": "Diya Patel",
    "pincode": "110022",
    "country": "India",
    "lat": 28.5658172,
    "lng": 77.1750958,
    "display_name": "110022, Ramakrishna Puram, Vasant Vihar Tehsil, New Delhi, Delhi, India"
  },
  {
    "name": "Advait Nair",
    "pincode": "110023",
    "country": "India",
    "lat": 28.5752275,
    "lng": 77.1956099,
    "display_name": "110023, Vasant Vihar Tehsil, New Delhi, Delhi, India"
  },
  {
    "name": "Anvi Sharma",
    "pincode": "110024",
    "country": "India",
    "lat": 28.4931158,
    "lng": 77.2073054,
    "display_name": "110024, Saket Tehsil, South Delhi, Delhi, India"
  },
  {
    "name": "Ayaan Verma",
    "pincode": "110025",
    "country": "India",
    "lat": 28.5557028,
    "lng": 77.2853967,
    "display_name": "110025, Sarita Vihar Tehsil, South East Delhi, Delhi, India"
  },
  {
    "name": "Ira Kapoor",
    "pincode": "110026",
    "country": "India",
    "lat": 28.6599383,
    "lng": 77.1380916,
    "display_name": "110026, Moti Nagar, West Delhi, Delhi, India"
  },
  {
    "name": "Arya Jain",
    "pincode": "110027",
    "country": "India",
    "lat": 28.6469052,
    "lng": 77.1196595,
    "display_name": "110027, Rajouri Garden, West Delhi, Delhi, India"
  },
  {
    "name": "Kabir Malhotra",
    "pincode": "110028",
    "country": "India",
    "lat": 28.6189682,
    "lng": 77.1511935,
    "display_name": "110028, Delhi Cantonment, New Delhi, Delhi, India"
  },
  {
    "name": "Ananya Gupta",
    "pincode": "110030",
    "country": "India",
    "lat": 28.5172749,
    "lng": 77.1911589,
    "display_name": "110030, Saket Tehsil, South Delhi, Delhi, India"
  },
  {
    "name": "Rudra Sharma",
    "pincode": "110031",
    "country": "India",
    "lat": 28.6530845,
    "lng": 77.2731611,
    "display_name": "110031, Gandhi Nagar, Vivek Vihar Tehsil, Shahdara, Delhi, India"
  },
  {
    "name": "Myra Mehta",
    "pincode": "110032",
    "country": "India",
    "lat": 28.6752962,
    "lng": 77.2856385,
    "display_name": "110032, Vivek Vihar Tehsil, Shahdara, Delhi, India"
  },
  {
    "name": "Aarush Kapoor",
    "pincode": "110033",
    "country": "India",
    "lat": 28.7278353,
    "lng": 77.1693456,
    "display_name": "110033, Model Town Tehsil, North Delhi, Delhi, India"
  },
  {
    "name": "Kiara Singh",
    "pincode": "110034",
    "country": "India",
    "lat": 28.6947069,
    "lng": 77.1343204,
    "display_name": "110034, Saraswati Vihar Tehsil, North West Delhi, Delhi, India"
  },
  {
    "name": "Reyansh Verma",
    "pincode": "110035",
    "country": "India",
    "lat": 28.6830148,
    "lng": 77.1616281,
    "display_name": "110035, Saraswati Vihar Tehsil, North West Delhi, Delhi, India"
  },
  {
    "name": "Tara Sharma",
    "pincode": "110036",
    "country": "India",
    "lat": 28.8091554,
    "lng": 77.1640245,
    "display_name": "110036, Alipur Tehsil, North Delhi, Delhi, India"
  },
  {
    "name": "Yash Gupta",
    "pincode": "110037",
    "country": "India",
    "lat": 28.5441638,
    "lng": 77.1249201,
    "display_name": "110037, Vasant Vihar Tehsil, New Delhi, Delhi, India"
  },
  {
    "name": "Anvi Mehra",
    "pincode": "110038",
    "country": "India",
    "lat": 28.5131037,
    "lng": 77.106859,
    "display_name": "110038, Vasant Vihar Tehsil, New Delhi, Delhi, India"
  },
  {
    "name": "Advika Kapoor",
    "pincode": "110039",
    "country": "India",
    "lat": 28.809983,
    "lng": 77.0287544,
    "display_name": "110039, Narela Tehsil, North Delhi, Delhi, India"
  },
  {
    "name": "Reyanshi Singh",
    "pincode": "110040",
    "country": "India",
    "lat": 28.8484009,
    "lng": 77.0896352,
    "display_name": "110040, Narela Tehsil, North Delhi, Delhi, India"
  },
  {
    "name": "Ishaan Malhotra",
    "pincode": "110041",
    "country": "India",
    "lat": 28.6679924,
    "lng": 77.050791,
    "display_name": "110041, Punjabi Bagh Tehsil, West Delhi, Delhi, India"
  },
  {
    "name": "Sia Verma",
    "pincode": "110042",
    "country": "India",
    "lat": 28.7450728,
    "lng": 77.1601505,
    "display_name": "110042, Model Town Tehsil, North Delhi, Delhi, India"
  },
  {
    "name": "Aarav Patel",
    "pincode": "110043",
    "country": "India",
    "lat": 28.5829277,
    "lng": 76.9694108,
    "display_name": "110043, Kapashera Tehsil, South West Delhi, Delhi, India"
  },
  {
    "name": "Mihika Sharma",
    "pincode": "110044",
    "country": "India",
    "lat": 28.5061191,
    "lng": 77.2999265,
    "display_name": "110044, Mohan Co-op Indl Estate, Sarita Vihar Tehsil, South East Delhi, Delhi, India"
  },
  {
    "name": "Vivaan Kapoor",
    "pincode": "110045",
    "country": "India",
    "lat": 28.59331,
    "lng": 77.0801106,
    "display_name": "110045, Dwarka Tehsil, South West Delhi, Delhi, India"
  },
  {
    "name": "Diya Singh",
    "pincode": "110046",
    "country": "India",
    "lat": 28.597389,
    "lng": 77.1265179,
    "display_name": "110046, Delhi Cantonment, New Delhi, Delhi, India"
  },
  {
    "name": "Ayaan Sharma",
    "pincode": "110047",
    "country": "India",
    "lat": 28.4695358,
    "lng": 77.1353872,
    "display_name": "110047, Mehrauli Tehsil, South Delhi, Delhi, India"
  },
  {
    "name": "Kiara Mehta",
    "pincode": "110048",
    "country": "India",
    "lat": 28.5486665,
    "lng": 77.2380608,
    "display_name": "110048, Kalkaji Tehsil, South East Delhi, Delhi, India"
  },
  {
    "name": "Rudra Verma",
    "pincode": "110049",
    "country": "India",
    "lat": 28.5599256,
    "lng": 77.2216948,
    "display_name": "110049, Defence Colony Tehsil, South East Delhi, Delhi, India"
  }
]