[
  {
    "name": "Aditi Sharma",
    "pincode": "411041",
    "country": "India",
    "lat": 18.4411029,
    "lng": 73.8156886,
    "display_name": "411041, Haveli, Pune, Maharashtra, India"
  },
  {
    "name": "Ravi Kulkarni",
    "pincode": "411057",
    "country": "India",
    "lat": 18.5908276,
    "lng": 73.7397835,
    "display_name": "411057, Mulshi, Pune, Maharashtra, India"
  },
  {
    "name": "Neha Patil",
    "pincode": "411038",
    "country": "India",
    "lat": 18.5074404,
    "lng": 73.8070609,
    "display_name": "411038, Pune City, Pune, Maharashtra, India"
  },
  {
    "name": "Shubham Jadhav",
    "pincode": "411033",
    "country": "India",
    "lat": 18.6230545,
    "lng": 73.7715726,
    "display_name": "411033, Mulshi, Pune, Maharashtra, India"
  },
  {
    "name": "Kiran Bhosale",
    "pincode": "411052",
    "country": "India",
    "lat": 18.4970435,
    "lng": 73.8168039,
    "display_name": "411052, Pune City, Pune, Maharashtra, India"
  },
  {
    "name": "Rutuja More",
    "pincode": "411028",
    "country": "India",
    "lat": 18.5038423,
    "lng": 73.9352015,
    "display_name": "411028, Pune City, Pune, Maharashtra, India"
  },
  {
    "name": "Aman Joshi",
    "pincode": "411021",
    "country": "India",
    "lat": 18.5304535,
    "lng": 73.7760755,
    "display_name": "411021, Pune City, Pune, Maharashtra, India"
  },
  {
    "name": "Sneha Deshmukh",
    "pincode": "411004",
    "country": "India",
    "lat": 18.5163087,
    "lng": 73.8359411,
    "display_name": "411004, Pune City, Pune, Maharashtra, India"
  },
  {
    "name": "Pratiksha Pawar",
    "pincode": "411014",
    "country": "India",
    "lat": 18.5588458,
    "lng": 73.9219241,
    "display_name": "411014, Ward 12, Pune City, Pune, Maharashtra, India"
  },
  {
    "name": "Sanket Shinde",
    "pincode": "411001",
    "country": "India",
    "lat": 18.532536,
    "lng": 73.8774896,
    "display_name": "411001, Pune City, Pune, Maharashtra, India"
  },
  {
    "name": "Mitali Gokhale",
    "pincode": "411005",
    "country": "India",
    "lat": 18.4849893,
    "lng": 73.8965787,
    "display_name": "411005, Pune City, Pune, Maharashtra, India"
  },
  {
    "name": "Ankit More",
    "pincode": "411017",
    "country": "India",
    "lat": 18.6100622,
    "lng": 73.7917239,
    "display_name": "411017, Haveli, Pune, Maharashtra, India"
  },
  {
    "name": "Nisha Patil",
    "pincode": "411030",
    "country": "India",
    "lat": 18.5091062,
    "lng": 73.8481779,
    "display_name": "411030, Pune City, Pune, Maharashtra, India"
  },
  {
    "name": "Tejas Joshi",
    "pincode": "411045",
    "country": "India",
    "lat": 18.5649733,
    "lng": 73.7807094,
    "display_name": "411045, Pune City, Pune, Maharashtra, India"
  },
  {
    "name": "Vaibhav Kulkarni",
    "pincode": "411046",
    "country": "India",
    "lat": 18.453035,
    "lng": 73.8495247,
    "display_name": "411046, Pune City, Pune, Maharashtra, India"
  },
  {
    "name": "Prachi Deshmukh",
    "pincode": "411048",
    "country": "India",
    "lat": 18.4692821,
    "lng": 73.891247,
    "display_name": "411048, Pune City, Pune, Maharashtra, India"
  },
  {
    "name": "Rohit Shinde",
    "pincode": "411002",
    "country": "India",
    "lat": 18.5117306,
    "lng": 73.8595026,
    "display_name": "411002, Pune City, Pune, Maharashtra, India"
  },
  {
    "name": "Komal Pawar",
    "pincode": "411043",
    "country": "India",
    "lat": 18.4636124,
    "lng": 73.8536994,
    "display_name": "411043, Pune City, Pune, Maharashtra, India"
  },
  {
    "name": "Manoj Gaikwad",
    "pincode": "411022",
    "country": "India",
    "lat": 18.5056241,
    "lng": 73.9065811,
    "display_name": "411022, Pune City, Pune, Maharashtra, India"
  },
  {
    "name": "Sayali Patil",
    "pincode": "411019",
    "country": "India",
    "lat": 18.6413608,
    "lng": 73.8009977,
    "display_name": "411019, Haveli, Pune, Maharashtra, India"
  },
  {
    "name": "Rahul Nair",
    "pincode": "400050",
    "country": "India",
    "lat": 19.0574917,
    "lng": 72.8297279,
    "display_name": "400050, Bandra West, Zone 3, Mumbai Suburban, Maharashtra, India"
  },
  {
    "name": "Neha Patil",
    "pincode": "400069",
    "country": "India",
    "lat": 19.121673,
    "lng": 72.8534478,
    "display_name": "400069, K/E Ward, Zone 3, Mumbai Suburban, Maharashtra, India"
  },
  {
    "name": "Aarav Mehta",
    "pincode": "400064",
    "country": "India",
    "lat": 19.1888529,
    "lng": 72.8402336,
    "display_name": "400064, P/N Ward, Zone 4, Mumbai Suburban, Maharashtra, India"
  },
  {
    "name": "Divya Shetty",
    "pincode": "400092",
    "country": "India",
    "lat": 19.2428418,
    "lng": 72.847467,
    "display_name": "400092, R/N Ward, Zone 4, Mumbai Suburban, Maharashtra, India"
  },
  {
    "name": "Siddharth Jain",
    "pincode": "400101",
    "country": "India",
    "lat": 19.2050261,
    "lng": 72.870113,
    "display_name": "400101, R/S Ward, Zone 4, Mumbai Suburban, Maharashtra, India"
  },
  {
    "name": "Anjali Verma",
    "pincode": "400067",
    "country": "India",
    "lat": 19.2072946,
    "lng": 72.8385708,
    "display_name": "400067, R/S Ward, Zone 4, Mumbai Suburban, Maharashtra, India"
  },
  {
    "name": "Pranav Desai",
    "pincode": "400053",
    "country": "India",
    "lat": 19.1379799,
    "lng": 72.8297907,
    "display_name": "400053, K/W Ward, Zone 3, Mumbai Suburban, Maharashtra, India"
  },
  {
    "name": "Megha Shah",
    "pincode": "400076",
    "country": "India",
    "lat": 19.122641,
    "lng": 72.9126071,
    "display_name": "400076, Zone 6, Mumbai Suburban, Maharashtra, India"
  },
  {
    "name": "Varun Malhotra",
    "pincode": "400093",
    "country": "India",
    "lat": 19.1261381,
    "lng": 72.8659168,
    "display_name": "400093, K/E Ward, Zone 3, Mumbai Suburban, Maharashtra, India"
  },
  {
    "name": "Simran Kaur",
    "pincode": "400059",
    "country": "India",
    "lat": 19.1156551,
    "lng": 72.9256908,
    "display_name": "400059, Zone 6, Mumbai Suburban, Maharashtra, India"
  },
  {
    "name": "Karthik Reddy",
    "pincode": "560066",
    "country": "India",
    "lat": 12.9668493,
    "lng": 77.7516428,
    "display_name": "560066, Whitefield, Bengaluru East City Corporation, Bengaluru, Bangalore East, Bengaluru Urban, Karnataka, India"
  },
  {
    "name": "Anusha Rao",
    "pincode": "560034",
    "country": "India",
    "lat": 12.9255706,
    "lng": 77.6343793,
    "display_name": "560034, Koramangala, Bengaluru South City Corporation, Bengaluru, Bangalore South, Bengaluru Urban, Karnataka, India"
  },
  {
    "name": "Vivek Shetty",
    "pincode": "560048",
    "country": "India",
    "lat": 12.9890485,
    "lng": 77.7067315,
    "display_name": "560048, Hoodi, Bangalore East, Bengaluru Urban, Karnataka, India"
  },
  {
    "name": "Priya Menon",
    "pincode": "560037",
    "country": "India",
    "lat": 12.9623272,
    "lng": 77.6972859,
    "display_name": "560037, Marathahalli, Bengaluru East City Corporation, Bengaluru, Bangalore East, Bengaluru Urban, Karnataka, India"
  },
  {
    "name": "Aditya Rao",
    "pincode": "560100",
    "country": "India",
    "lat": 12.8502428,
    "lng": 77.6545244,
    "display_name": "560100, Electronic City, Bangalore South, Bengaluru Urban, Karnataka, India"
  },
  {
    "name": "Snehal Kumar",
    "pincode": "560029",
    "country": "India",
    "lat": 12.9308405,
    "lng": 77.6074782,
    "display_name": "560029, Bengaluru South City Corporation, Bengaluru, Bangalore South, Bengaluru Urban, Karnataka, India"
  },
  {
    "name": "Sanjay Iyer",
    "pincode": "560025",
    "country": "India",
    "lat": 12.963021,
    "lng": 77.6035715,
    "display_name": "560025, Richmond Town, Bengaluru Central City Corporation, Bengaluru, Bangalore North, Bengaluru Urban, Karnataka, India"
  },
  {
    "name": "Meera Nair",
    "pincode": "560102",
    "country": "India",
    "lat": 12.9143784,
    "lng": 77.6432565,
    "display_name": "560102, HSR Layout, Bengaluru South City Corporation, Bengaluru, Bangalore South, Bengaluru Urban, Karnataka, India"
  },
  {
    "name": "Aakash Gupta",
    "pincode": "560038",
    "country": "India",
    "lat": 12.98083,
    "lng": 77.6392889,
    "display_name": "560038, Indiranagar, Bengaluru Central City Corporation, Bengaluru, Bangalore North, Bengaluru Urban, Karnataka, India"
  },
  {
    "name": "Nandita Roy",
    "pincode": "560001",
    "country": "India",
    "lat": 12.9807371,
    "lng": 77.5940135,
    "display_name": "560001, Vasanth Nagar, Bengaluru Central City Corporation, Bengaluru, Bangalore North, Bengaluru Urban, Karnataka, India"
  },
  {
    "name": "Arjun Singh",
    "pincode": "110001",
    "country": "India",
    "lat": 28.628737,
    "lng": 77.2183781,
    "display_name": "110001, Chanakya Puri Tehsil, New Delhi, Delhi, India"
  },
  {
    "name": "Ishita Gupta",
    "pincode": "110011",
    "country": "India",
    "lat": 28.6037734,
    "lng": 77.2102999,
    "display_name": "110011, Chanakya Puri Tehsil, New Delhi, Delhi, India"
  },
  {
    "name": "Kabir Sharma",
    "pincode": "110029",
    "country": "India",
    "lat": 28.5684538,
    "lng": 77.2003921,
    "display_name": "110029, Vasant Vihar Tehsil, New Delhi, Delhi, India"
  },
  {
    "name": "Daniel Mathew",
    "pincode": "600028",
    "country": "India",
    "lat": 13.0254663,
    "lng": 80.2619427,
    "display_name": "600028, Zone 9 Teynampet, Chennai, Tamil Nadu, India"
  },
  {
    "name": "Lavanya Raj",
    "pincode": "600020",
    "country": "India",
    "lat": 13.000321,
    "lng": 80.2524455,
    "display_name": "600020, Zone 13 Adyar, Chennai, Tamil Nadu, India"
  },
  {
    "name": "Arvind Krishnan",
    "pincode": "600018",
    "country": "India",
    "lat": 13.0371057,
    "lng": 80.2552123,
    "display_name": "600018, Zone 9 Teynampet, Chennai, Tamil Nadu, India"
  },
  {
    "name": "Emily Brown",
    "pincode": "10001",
    "country": "USA",
    "lat": 40.7484337,
    "lng": -73.9940233,
    "display_name": "10001, Manhattan, New York County, City of New York, New York, United States"
  },
  {
    "name": "Liam Wilson",
    "pincode": "WC2N",
    "country": "UK",
    "lat": 51.5071595,
    "lng": -0.1254806,
    "display_name": "Royal Mail, Northumberland Street, Covent Garden, Waterloo, City of Westminster, Greater London, England, WC2N 5DB, United Kingdom"
  },
  {
    "name": "Sophie Martin",
    "pincode": "75001",
    "country": "France",
    "lat": 48.8618779,
    "lng": 2.3374139,
    "display_name": "75001, Paris, France métropolitaine, France"
  },
  {
    "name": "Kenji Tanaka",
    "pincode": "100-0001",
    "country": "Japan",
    "lat": 35.6848662,
    "lng": 139.7526407,
    "display_name": "100-0001, 千代田, 千代田区, 東京都, 日本"
  }
]